[{"name":"Serbia","latitude":"44.8024","longitude":"20.4656"},{"name":"Germany","latitude":"52.5235","longitude":"13.4115"},{"name":"Russian Federation","latitude":"55.7558","longitude":"37.6176"},{"name":"Netherlands","latitude":"52.3738","longitude":"4.89095"},{"name":"Macao SAR, China","latitude":"22.1667","longitude":"113.55"},{"name":"Croatia","latitude":"45.8069","longitude":"15.9614"},{"name":"France","latitude":"48.8566","longitude":"2.35097"},{"name":"Japan","latitude":"35.67","longitude":"139.77"},{"name":"United States","latitude":"38.8895","longitude":"-77.032"},{"name":"Mexico","latitude":"19.427","longitude":"-99.1276"},{"name":"Italy","latitude":"41.8955","longitude":"12.4823"},{"name":"Luxembourg","latitude":"49.61","longitude":"6.1296"},{"name":"New Zealand","latitude":"-41.2865","longitude":"174.776"},{"name":"Congo, Dem. Rep.","latitude":"-4.325","longitude":"15.3222"},{"name":"Ukraine","latitude":"50.4536","longitude":"30.5038"},{"name":"South Africa","latitude":"-25.746","longitude":"28.1871"},{"name":"Nigeria","latitude":"9.05804","longitude":"7.48906"},{"name":"Kenya","latitude":"-1.27975","longitude":"36.8126"},{"name":"Ghana","latitude":"5.57045","longitude":"-0.20795"},{"name":"Sudan","latitude":"15.5932","longitude":"32.5363"},{"name":"Ecuador","latitude":"-0.229498","longitude":"-78.5243"},{"name":"Paraguay","latitude":"-25.3005","longitude":"-57.6362"},{"name":"Colombia","latitude":"4.60987","longitude":"-74.082"}]